{"services":{"hub":[{"id":12,"name":"Stazione Maia-Bassa","address":"Via Palade, 108","cap":39012,"city":"Merano","country":"Bolzano","latitude":46.6566223,"longitude":11.14828579999994,"is_event":"False","availability":"05/08/2026 00:00:00","users":0},{"id":13,"name":"Stazione Centrale","address":"Piazza Stazione, 1","cap":39012,"city":"Merano","country":"Bolzano","latitude":46.6627,"longitude":11.15974,"is_event":"False","availability":"05/08/2026 12:27:10","users":2},{"id":14,"name":"Incrocio Via Piave / Via Petrarca","address":"Incrocio Via Piave / Via Petrarca","cap":39012,"city":"Merano","country":"Bolzano","latitude":46.666633854715641,"longitude":11.158515506607046,"is_event":"False","availability":"05/08/2026 12:27:10","users":0},{"id":15,"name":"Sinigo","address":"Sinigo: Via Nazionale Sinigo BZ, Strada Provinciale 117","cap":39012,"city":"Sinigo","country":"Bolzano","latitude":46.635020778426792,"longitude":11.176907899475054,"is_event":"False","availability":"05/08/2026 12:27:10","users":0},{"id":16,"name":"Giardini Trauttmansdorff","address":"via S. Valentino 51a","cap":39012,"city":"Merano","country":"Bolzano","latitude":46.6618,"longitude":11.184390000000008,"is_event":"False","availability":"05/08/2026 12:27:10","users":1}],"stats":{"registered_users":3,"confirmed_trips":3,"trips_last_30":3,"drivers":2,"passengers":2,"distance":107.0,"co2":65.2}}}